[
  {
    "id": "budapest_1",
    "name": "Batthyány-örökmécses",
    "description": "budapest'de ziyaret edilebilecek popüler bir nokta: Batthyány-örökmécses.",
    "image": "https://picsum.photos/800/600?random=0",
    "category": "Tarihi",
    "coordinates": {
      "latitude": 47.5060134,
      "longitude": 19.0519593
    },
    "estimatedDuration": 68,
    "openingTime": "09:00",
    "closingTime": "18:00",
    "cost": 53,
    "interests": [
      "Tarihi"
    ]
  },
  {
    "id": "budapest_2",
    "name": "Cipők a Duna-parton",
    "description": "budapest'de ziyaret edilebilecek popüler bir nokta: Cipők a Duna-parton.",
    "image": "https://picsum.photos/800/600?random=1",
    "category": "Tarihi",
    "coordinates": {
      "latitude": 47.5039715,
      "longitude": 19.0447906
    },
    "estimatedDuration": 59,
    "openingTime": "09:00",
    "closingTime": "18:00",
    "cost": 0,
    "interests": [
      "Tarihi"
    ]
  },
  {
    "id": "budapest_3",
    "name": "Podmaniczky Frigyes",
    "description": "budapest'de ziyaret edilebilecek popüler bir nokta: Podmaniczky Frigyes.",
    "image": "https://picsum.photos/800/600?random=2",
    "category": "Tarihi",
    "coordinates": {
      "latitude": 47.5026511,
      "longitude": 19.0542217
    },
    "estimatedDuration": 64,
    "openingTime": "09:00",
    "closingTime": "18:00",
    "cost": 0,
    "interests": [
      "Tarihi"
    ]
  },
  {
    "id": "budapest_4",
    "name": "Nereidák kútja",
    "description": "budapest'de ziyaret edilebilecek popüler bir nokta: Nereidák kútja.",
    "image": "https://picsum.photos/800/600?random=3",
    "category": "Tarihi",
    "coordinates": {
      "latitude": 47.4930103,
      "longitude": 19.0559863
    },
    "estimatedDuration": 82,
    "openingTime": "09:00",
    "closingTime": "18:00",
    "cost": 0,
    "interests": [
      "Tarihi"
    ]
  },
  {
    "id": "budapest_5",
    "name": "Emanuel-emlékfa",
    "description": "budapest'de ziyaret edilebilecek popüler bir nokta: Emanuel-emlékfa.",
    "image": "https://picsum.photos/800/600?random=4",
    "category": "Tarihi",
    "coordinates": {
      "latitude": 47.4964486,
      "longitude": 19.0610901
    },
    "estimatedDuration": 52,
    "openingTime": "09:00",
    "closingTime": "18:00",
    "cost": 0,
    "interests": [
      "Tarihi"
    ]
  },
  {
    "id": "budapest_6",
    "name": "Unitárius templom",
    "description": "budapest'in tarihi ibadet yapılarından biri.",
    "image": "https://picsum.photos/800/600?random=5",
    "category": "Tarihi",
    "coordinates": {
      "latitude": 47.5078956,
      "longitude": 19.0518427
    },
    "estimatedDuration": 81,
    "openingTime": "09:00",
    "closingTime": "18:00",
    "cost": 0,
    "interests": [
      "Tarihi"
    ]
  },
  {
    "id": "budapest_7",
    "name": "Vajdahunyad vára",
    "description": "budapest'in tarihine tanıklık eden bir kale.",
    "image": "https://picsum.photos/800/600?random=6",
    "category": "Tarihi",
    "coordinates": {
      "latitude": 47.5153549,
      "longitude": 19.0818753
    },
    "estimatedDuration": 81,
    "openingTime": "09:00",
    "closingTime": "18:00",
    "cost": 122,
    "interests": [
      "Tarihi"
    ]
  },
  {
    "id": "budapest_8",
    "name": "Liszt Ferenc Emlékmúzeum és Kutatóközpont",
    "description": "budapest'de bulunan önemli bir müze.",
    "image": "https://picsum.photos/800/600?random=7",
    "category": "Müze",
    "coordinates": {
      "latitude": 47.5069655,
      "longitude": 19.066493
    },
    "estimatedDuration": 80,
    "openingTime": "09:00",
    "closingTime": "18:00",
    "cost": 25,
    "interests": [
      "Müze"
    ]
  },
  {
    "id": "budapest_9",
    "name": "Kodály Zoltán Emlékmúzeum és Archívum",
    "description": "budapest'de bulunan önemli bir müze.",
    "image": "https://images.pexels.com/photos/8333636/pexels-photo-8333636.jpeg?auto=compress&cs=tinysrgb&h=650&w=940",
    "category": "Müze",
    "coordinates": {
      "latitude": 47.5098565,
      "longitude": 19.0708765
    },
    "estimatedDuration": 82,
    "openingTime": "09:00",
    "closingTime": "18:00",
    "cost": 0,
    "interests": [
      "Müze"
    ]
  },
  {
    "id": "budapest_10",
    "name": "Ady Endre Emlékmúzeum",
    "description": "budapest'de bulunan önemli bir müze.",
    "image": "https://picsum.photos/800/600?random=9",
    "category": "Müze",
    "coordinates": {
      "latitude": 47.4921191,
      "longitude": 19.0553567
    },
    "estimatedDuration": 49,
    "openingTime": "09:00",
    "closingTime": "18:00",
    "cost": 65,
    "interests": [
      "Müze"
    ]
  },
  {
    "id": "budapest_11",
    "name": "Földalatti Vasúti Múzeum",
    "description": "budapest'de bulunan önemli bir müze.",
    "image": "https://picsum.photos/800/600?random=10",
    "category": "Müze",
    "coordinates": {
      "latitude": 47.4976861,
      "longitude": 19.0548943
    },
    "estimatedDuration": 74,
    "openingTime": "09:00",
    "closingTime": "18:00",
    "cost": 51,
    "interests": [
      "Müze"
    ]
  },
  {
    "id": "budapest_12",
    "name": "Bélyegmúzeum",
    "description": "budapest'de bulunan önemli bir müze.",
    "image": "https://picsum.photos/800/600?random=11",
    "category": "Müze",
    "coordinates": {
      "latitude": 47.502282,
      "longitude": 19.0688526
    },
    "estimatedDuration": 64,
    "openingTime": "09:00",
    "closingTime": "18:00",
    "cost": 0,
    "interests": [
      "Müze"
    ]
  },
  {
    "id": "budapest_13",
    "name": "Nyitott Sír",
    "description": "budapest'de ziyaret edilebilecek popüler bir nokta: Nyitott Sír.",
    "image": "https://picsum.photos/800/600?random=12",
    "category": "Tarihi",
    "coordinates": {
      "latitude": 47.4757923,
      "longitude": 19.2033598
    },
    "estimatedDuration": 64,
    "openingTime": "09:00",
    "closingTime": "18:00",
    "cost": 0,
    "interests": [
      "Tarihi"
    ]
  },
  {
    "id": "budapest_14",
    "name": "Szimpla Kert",
    "description": "budapest'de ziyaret edilebilecek popüler bir nokta: Szimpla Kert.",
    "image": "https://picsum.photos/800/600?random=13",
    "category": "Tarihi",
    "coordinates": {
      "latitude": 47.4969297,
      "longitude": 19.0633135
    },
    "estimatedDuration": 82,
    "openingTime": "09:00",
    "closingTime": "18:00",
    "cost": 115,
    "interests": [
      "Tarihi"
    ]
  },
  {
    "id": "budapest_15",
    "name": "Kaán Károly-kilátó",
    "description": "budapest'de ziyaret edilebilecek popüler bir nokta: Kaán Károly-kilátó.",
    "image": "https://picsum.photos/800/600?random=14",
    "category": "Tarihi",
    "coordinates": {
      "latitude": 47.5336206,
      "longitude": 18.9551877
    },
    "estimatedDuration": 88,
    "openingTime": "09:00",
    "closingTime": "18:00",
    "cost": 197,
    "interests": [
      "Tarihi"
    ]
  },
  {
    "id": "budapest_16",
    "name": "Pál-völgyi-barlang",
    "description": "budapest'de ziyaret edilebilecek popüler bir nokta: Pál-völgyi-barlang.",
    "image": "https://picsum.photos/800/600?random=15",
    "category": "Tarihi",
    "coordinates": {
      "latitude": 47.5329932,
      "longitude": 19.0159326
    },
    "estimatedDuration": 55,
    "openingTime": "09:00",
    "closingTime": "18:00",
    "cost": 0,
    "interests": [
      "Tarihi"
    ]
  },
  {
    "id": "budapest_17",
    "name": "Arany Sas Patikamúzeum",
    "description": "budapest'de bulunan önemli bir müze.",
    "image": "https://picsum.photos/800/600?random=16",
    "category": "Müze",
    "coordinates": {
      "latitude": 47.5006451,
      "longitude": 19.0339537
    },
    "estimatedDuration": 52,
    "openingTime": "09:00",
    "closingTime": "18:00",
    "cost": 0,
    "interests": [
      "Müze"
    ]
  },
  {
    "id": "budapest_18",
    "name": "Erzsébet királyné",
    "description": "budapest'de ziyaret edilebilecek popüler bir nokta: Erzsébet királyné.",
    "image": "https://picsum.photos/800/600?random=17",
    "category": "Tarihi",
    "coordinates": {
      "latitude": 47.4906629,
      "longitude": 19.0458911
    },
    "estimatedDuration": 89,
    "openingTime": "09:00",
    "closingTime": "18:00",
    "cost": 178,
    "interests": [
      "Tarihi"
    ]
  },
  {
    "id": "budapest_19",
    "name": "Budapesti Történeti Múzeum",
    "description": "budapest'de bulunan önemli bir müze.",
    "image": "https://picsum.photos/800/600?random=18",
    "category": "Müze",
    "coordinates": {
      "latitude": 47.4954582,
      "longitude": 19.0404987
    },
    "estimatedDuration": 79,
    "openingTime": "09:00",
    "closingTime": "18:00",
    "cost": 0,
    "interests": [
      "Müze"
    ]
  },
  {
    "id": "budapest_20",
    "name": "Sziklakórház Atombunker Múzeum",
    "description": "budapest'de bulunan önemli bir müze.",
    "image": "https://picsum.photos/800/600?random=19",
    "category": "Müze",
    "coordinates": {
      "latitude": 47.5007866,
      "longitude": 19.0314184
    },
    "estimatedDuration": 43,
    "openingTime": "09:00",
    "closingTime": "18:00",
    "cost": 0,
    "interests": [
      "Müze"
    ]
  },
  {
    "id": "budapest_21",
    "name": "Honvéd-szobor",
    "description": "budapest'de ziyaret edilebilecek popüler bir nokta: Honvéd-szobor.",
    "image": "https://picsum.photos/800/600?random=20",
    "category": "Tarihi",
    "coordinates": {
      "latitude": 47.4995724,
      "longitude": 19.0351845
    },
    "estimatedDuration": 53,
    "openingTime": "09:00",
    "closingTime": "18:00",
    "cost": 119,
    "interests": [
      "Tarihi"
    ]
  },
  {
    "id": "budapest_22",
    "name": "Szentháromság-szobor",
    "description": "budapest'de ziyaret edilebilecek popüler bir nokta: Szentháromság-szobor.",
    "image": "https://picsum.photos/800/600?random=21",
    "category": "Tarihi",
    "coordinates": {
      "latitude": 47.5016858,
      "longitude": 19.0335125
    },
    "estimatedDuration": 50,
    "openingTime": "09:00",
    "closingTime": "18:00",
    "cost": 0,
    "interests": [
      "Tarihi"
    ]
  },
  {
    "id": "budapest_23",
    "name": "Ludwig Múzeum – Kortárs Művészeti Múzeum",
    "description": "budapest'de bulunan önemli bir müze.",
    "image": "https://picsum.photos/800/600?random=22",
    "category": "Müze",
    "coordinates": {
      "latitude": 47.469348,
      "longitude": 19.0711106
    },
    "estimatedDuration": 67,
    "openingTime": "09:00",
    "closingTime": "18:00",
    "cost": 0,
    "interests": [
      "Müze"
    ]
  },
  {
    "id": "budapest_24",
    "name": "Petőfi Sándor",
    "description": "budapest'de ziyaret edilebilecek popüler bir nokta: Petőfi Sándor.",
    "image": "https://picsum.photos/800/600?random=23",
    "category": "Tarihi",
    "coordinates": {
      "latitude": 47.492927,
      "longitude": 19.0505211
    },
    "estimatedDuration": 47,
    "openingTime": "09:00",
    "closingTime": "18:00",
    "cost": 0,
    "interests": [
      "Tarihi"
    ]
  },
  {
    "id": "budapest_25",
    "name": "Bajor Gizi Színészmúzeum",
    "description": "budapest'de bulunan önemli bir müze.",
    "image": "https://picsum.photos/800/600?random=24",
    "category": "Müze",
    "coordinates": {
      "latitude": 47.4939172,
      "longitude": 19.0112763
    },
    "estimatedDuration": 54,
    "openingTime": "09:00",
    "closingTime": "18:00",
    "cost": 107,
    "interests": [
      "Müze"
    ]
  },
  {
    "id": "budapest_26",
    "name": "Szemlő-hegyi-barlang",
    "description": "budapest'de ziyaret edilebilecek popüler bir nokta: Szemlő-hegyi-barlang.",
    "image": "https://picsum.photos/800/600?random=25",
    "category": "Tarihi",
    "coordinates": {
      "latitude": 47.5284842,
      "longitude": 19.0257467
    },
    "estimatedDuration": 33,
    "openingTime": "09:00",
    "closingTime": "18:00",
    "cost": 0,
    "interests": [
      "Tarihi"
    ]
  },
  {
    "id": "budapest_27",
    "name": "Öntödei Múzeum",
    "description": "budapest'de bulunan önemli bir müze.",
    "image": "https://picsum.photos/800/600?random=26",
    "category": "Müze",
    "coordinates": {
      "latitude": 47.5114745,
      "longitude": 19.0356204
    },
    "estimatedDuration": 57,
    "openingTime": "09:00",
    "closingTime": "18:00",
    "cost": 0,
    "interests": [
      "Müze"
    ]
  },
  {
    "id": "budapest_28",
    "name": "Kánai templomrom",
    "description": "budapest'de ziyaret edilebilecek popüler bir nokta: Kánai templomrom.",
    "image": "https://picsum.photos/800/600?random=27",
    "category": "Tarihi",
    "coordinates": {
      "latitude": 47.4477825,
      "longitude": 19.0010346
    },
    "estimatedDuration": 75,
    "openingTime": "09:00",
    "closingTime": "18:00",
    "cost": 33,
    "interests": [
      "Tarihi"
    ]
  },
  {
    "id": "budapest_29",
    "name": "Ferences templom",
    "description": "budapest'de ziyaret edilebilecek popüler bir nokta: Ferences templom.",
    "image": "https://picsum.photos/800/600?random=28",
    "category": "Tarihi",
    "coordinates": {
      "latitude": 47.5253259,
      "longitude": 19.0466065
    },
    "estimatedDuration": 43,
    "openingTime": "09:00",
    "closingTime": "18:00",
    "cost": 25,
    "interests": [
      "Tarihi"
    ]
  },
  {
    "id": "budapest_30",
    "name": "Szent Gellért",
    "description": "budapest'de ziyaret edilebilecek popüler bir nokta: Szent Gellért.",
    "image": "https://picsum.photos/800/600?random=29",
    "category": "Tarihi",
    "coordinates": {
      "latitude": 47.4895896,
      "longitude": 19.0454996
    },
    "estimatedDuration": 63,
    "openingTime": "09:00",
    "closingTime": "18:00",
    "cost": 0,
    "interests": [
      "Tarihi"
    ]
  },
  {
    "id": "budapest_31",
    "name": "Szabadság-szobor",
    "description": "budapest'de ziyaret edilebilecek popüler bir nokta: Szabadság-szobor.",
    "image": "https://picsum.photos/800/600?random=30",
    "category": "Tarihi",
    "coordinates": {
      "latitude": 47.4867446,
      "longitude": 19.0480283
    },
    "estimatedDuration": 77,
    "openingTime": "09:00",
    "closingTime": "18:00",
    "cost": 0,
    "interests": [
      "Tarihi"
    ]
  },
  {
    "id": "budapest_32",
    "name": "Szent Ágoston-kápolna",
    "description": "budapest'in tarihi ibadet yapılarından biri.",
    "image": "https://picsum.photos/800/600?random=31",
    "category": "Tarihi",
    "coordinates": {
      "latitude": 47.5158855,
      "longitude": 19.0492624
    },
    "estimatedDuration": 65,
    "openingTime": "09:00",
    "closingTime": "18:00",
    "cost": 0,
    "interests": [
      "Tarihi"
    ]
  },
  {
    "id": "budapest_33",
    "name": "Victor Vasarely Múzeum",
    "description": "budapest'de bulunan önemli bir müze.",
    "image": "https://picsum.photos/800/600?random=32",
    "category": "Müze",
    "coordinates": {
      "latitude": 47.5406273,
      "longitude": 19.0468718
    },
    "estimatedDuration": 32,
    "openingTime": "09:00",
    "closingTime": "18:00",
    "cost": 195,
    "interests": [
      "Müze"
    ]
  },
  {
    "id": "budapest_34",
    "name": "Fürdőmúzeum",
    "description": "budapest'de bulunan önemli bir müze.",
    "image": "https://picsum.photos/800/600?random=33",
    "category": "Müze",
    "coordinates": {
      "latitude": 47.5411713,
      "longitude": 19.0411803
    },
    "estimatedDuration": 45,
    "openingTime": "09:00",
    "closingTime": "18:00",
    "cost": 0,
    "interests": [
      "Müze"
    ]
  },
  {
    "id": "budapest_35",
    "name": "Limes: Dunakeszi Késő-római Kikötőerőd Kiállítás",
    "description": "budapest'in tarihine tanıklık eden bir kale.",
    "image": "https://picsum.photos/800/600?random=34",
    "category": "Tarihi",
    "coordinates": {
      "latitude": 47.6580793,
      "longitude": 19.1197065
    },
    "estimatedDuration": 60,
    "openingTime": "09:00",
    "closingTime": "18:00",
    "cost": 0,
    "interests": [
      "Tarihi"
    ]
  },
  {
    "id": "budapest_36",
    "name": "Zsíros-hegyi Turistaház romja",
    "description": "budapest'de ziyaret edilebilecek popüler bir nokta: Zsíros-hegyi Turistaház romja.",
    "image": "https://picsum.photos/800/600?random=35",
    "category": "Tarihi",
    "coordinates": {
      "latitude": 47.5902652,
      "longitude": 18.9007983
    },
    "estimatedDuration": 38,
    "openingTime": "09:00",
    "closingTime": "18:00",
    "cost": 119,
    "interests": [
      "Tarihi"
    ]
  },
  {
    "id": "budapest_37",
    "name": "Táborhegyi-barlang",
    "description": "budapest'de ziyaret edilebilecek popüler bir nokta: Táborhegyi-barlang.",
    "image": "https://picsum.photos/800/600?random=36",
    "category": "Tarihi",
    "coordinates": {
      "latitude": 47.5501607,
      "longitude": 19.0119143
    },
    "estimatedDuration": 36,
    "openingTime": "09:00",
    "closingTime": "18:00",
    "cost": 35,
    "interests": [
      "Tarihi"
    ]
  },
  {
    "id": "budapest_38",
    "name": "Kovács Margit Kerámiamúzeum",
    "description": "budapest'de bulunan önemli bir müze.",
    "image": "https://picsum.photos/800/600?random=37",
    "category": "Müze",
    "coordinates": {
      "latitude": 47.6676496,
      "longitude": 19.0768381
    },
    "estimatedDuration": 77,
    "openingTime": "09:00",
    "closingTime": "18:00",
    "cost": 174,
    "interests": [
      "Müze"
    ]
  },
  {
    "id": "budapest_39",
    "name": "Postamúzeum",
    "description": "budapest'de bulunan önemli bir müze.",
    "image": "https://picsum.photos/800/600?random=38",
    "category": "Müze",
    "coordinates": {
      "latitude": 47.5109023,
      "longitude": 19.075144
    },
    "estimatedDuration": 59,
    "openingTime": "09:00",
    "closingTime": "18:00",
    "cost": 30,
    "interests": [
      "Müze"
    ]
  },
  {
    "id": "budapest_40",
    "name": "Tündér-szikla",
    "description": "budapest'de ziyaret edilebilecek popüler bir nokta: Tündér-szikla.",
    "image": "https://picsum.photos/800/600?random=39",
    "category": "Tarihi",
    "coordinates": {
      "latitude": 47.515529,
      "longitude": 18.9691284
    },
    "estimatedDuration": 76,
    "openingTime": "09:00",
    "closingTime": "18:00",
    "cost": 0,
    "interests": [
      "Tarihi"
    ]
  },
  {
    "id": "budapest_41",
    "name": "Solymári vár",
    "description": "budapest'in tarihine tanıklık eden bir kale.",
    "image": "https://picsum.photos/800/600?random=40",
    "category": "Tarihi",
    "coordinates": {
      "latitude": 47.592507,
      "longitude": 18.9494009
    },
    "estimatedDuration": 69,
    "openingTime": "09:00",
    "closingTime": "18:00",
    "cost": 0,
    "interests": [
      "Tarihi"
    ]
  },
  {
    "id": "budapest_42",
    "name": "Oroszlán-szikla",
    "description": "budapest'de ziyaret edilebilecek popüler bir nokta: Oroszlán-szikla.",
    "image": "https://picsum.photos/800/600?random=41",
    "category": "Tarihi",
    "coordinates": {
      "latitude": 47.542897,
      "longitude": 18.9890808
    },
    "estimatedDuration": 59,
    "openingTime": "09:00",
    "closingTime": "18:00",
    "cost": 0,
    "interests": [
      "Tarihi"
    ]
  },
  {
    "id": "budapest_43",
    "name": "Savoyai Jenő",
    "description": "budapest'de ziyaret edilebilecek popüler bir nokta: Savoyai Jenő.",
    "image": "https://picsum.photos/800/600?random=42",
    "category": "Tarihi",
    "coordinates": {
      "latitude": 47.496414,
      "longitude": 19.04008
    },
    "estimatedDuration": 45,
    "openingTime": "09:00",
    "closingTime": "18:00",
    "cost": 0,
    "interests": [
      "Tarihi"
    ]
  },
  {
    "id": "budapest_44",
    "name": "Erdős Renée-ház Muzeális Gyűjtemény és Kiállítóterem",
    "description": "budapest'de bulunan önemli bir müze.",
    "image": "https://picsum.photos/800/600?random=43",
    "category": "Müze",
    "coordinates": {
      "latitude": 47.4715594,
      "longitude": 19.2455534
    },
    "estimatedDuration": 86,
    "openingTime": "09:00",
    "closingTime": "18:00",
    "cost": 76,
    "interests": [
      "Müze"
    ]
  },
  {
    "id": "budapest_45",
    "name": "Országos Színháztörténeti Múzeum és Intézet",
    "description": "budapest'de bulunan önemli bir müze.",
    "image": "https://picsum.photos/800/600?random=44",
    "category": "Müze",
    "coordinates": {
      "latitude": 47.4976938,
      "longitude": 19.0297961
    },
    "estimatedDuration": 83,
    "openingTime": "09:00",
    "closingTime": "18:00",
    "cost": 0,
    "interests": [
      "Müze"
    ]
  },
  {
    "id": "budapest_46",
    "name": "Katasztrófavédelem Központi Múzeuma",
    "description": "budapest'de bulunan önemli bir müze.",
    "image": "https://picsum.photos/800/600?random=45",
    "category": "Müze",
    "coordinates": {
      "latitude": 47.4813569,
      "longitude": 19.1341457
    },
    "estimatedDuration": 73,
    "openingTime": "09:00",
    "closingTime": "18:00",
    "cost": 152,
    "interests": [
      "Müze"
    ]
  },
  {
    "id": "budapest_47",
    "name": "Magyar Kereskedelmi és Vendéglátóipari Múzeum",
    "description": "budapest'de bulunan önemli bir müze.",
    "image": "https://picsum.photos/800/600?random=46",
    "category": "Müze",
    "coordinates": {
      "latitude": 47.5385985,
      "longitude": 19.0431362
    },
    "estimatedDuration": 59,
    "openingTime": "09:00",
    "closingTime": "18:00",
    "cost": 0,
    "interests": [
      "Müze"
    ]
  },
  {
    "id": "budapest_48",
    "name": "A katinyi mártírok emlékműve",
    "description": "budapest'de ziyaret edilebilecek popüler bir nokta: A katinyi mártírok emlékműve.",
    "image": "https://picsum.photos/800/600?random=47",
    "category": "Tarihi",
    "coordinates": {
      "latitude": 47.5324354,
      "longitude": 19.0377247
    },
    "estimatedDuration": 36,
    "openingTime": "09:00",
    "closingTime": "18:00",
    "cost": 0,
    "interests": [
      "Tarihi"
    ]
  },
  {
    "id": "budapest_49",
    "name": "Szent Lázár templom romjai",
    "description": "budapest'de ziyaret edilebilecek popüler bir nokta: Szent Lázár templom romjai.",
    "image": "https://picsum.photos/800/600?random=48",
    "category": "Tarihi",
    "coordinates": {
      "latitude": 47.5010762,
      "longitude": 19.0293846
    },
    "estimatedDuration": 41,
    "openingTime": "09:00",
    "closingTime": "18:00",
    "cost": 0,
    "interests": [
      "Tarihi"
    ]
  },
  {
    "id": "budapest_50",
    "name": "Halhatatlanok sétánya",
    "description": "budapest'de ziyaret edilebilecek popüler bir nokta: Halhatatlanok sétánya.",
    "image": "https://picsum.photos/800/600?random=49",
    "category": "Tarihi",
    "coordinates": {
      "latitude": 47.5035433,
      "longitude": 19.0604354
    },
    "estimatedDuration": 54,
    "openingTime": "09:00",
    "closingTime": "18:00",
    "cost": 0,
    "interests": [
      "Tarihi"
    ]
  },
  {
    "id": "budapest_51",
    "name": "A német megszállás áldozatainak emlékműve",
    "description": "budapest'de ziyaret edilebilecek popüler bir nokta: A német megszállás áldozatainak emlékműve.",
    "image": "https://picsum.photos/800/600?random=50",
    "category": "Tarihi",
    "coordinates": {
      "latitude": 47.5031423,
      "longitude": 19.0506379
    },
    "estimatedDuration": 89,
    "openingTime": "09:00",
    "closingTime": "18:00",
    "cost": 0,
    "interests": [
      "Tarihi"
    ]
  },
  {
    "id": "budapest_52",
    "name": "Kassák Lajos Emlékmúzeum",
    "description": "budapest'de bulunan önemli bir müze.",
    "image": "https://picsum.photos/800/600?random=51",
    "category": "Müze",
    "coordinates": {
      "latitude": 47.5410451,
      "longitude": 19.0462089
    },
    "estimatedDuration": 69,
    "openingTime": "09:00",
    "closingTime": "18:00",
    "cost": 0,
    "interests": [
      "Müze"
    ]
  },
  {
    "id": "budapest_53",
    "name": "Zászlókiállítás",
    "description": "budapest'de bulunan önemli bir müze.",
    "image": "https://picsum.photos/800/600?random=52",
    "category": "Müze",
    "coordinates": {
      "latitude": 47.4875693,
      "longitude": 19.0707659
    },
    "estimatedDuration": 72,
    "openingTime": "09:00",
    "closingTime": "18:00",
    "cost": 89,
    "interests": [
      "Müze"
    ]
  },
  {
    "id": "budapest_54",
    "name": "Dar Al Salam mecset",
    "description": "budapest'in tarihi ibadet yapılarından biri.",
    "image": "https://picsum.photos/800/600?random=53",
    "category": "Tarihi",
    "coordinates": {
      "latitude": 47.4799148,
      "longitude": 19.0503655
    },
    "estimatedDuration": 33,
    "openingTime": "09:00",
    "closingTime": "18:00",
    "cost": 0,
    "interests": [
      "Tarihi"
    ]
  },
  {
    "id": "budapest_55",
    "name": "Báthory István",
    "description": "budapest'de ziyaret edilebilecek popüler bir nokta: Báthory István.",
    "image": "https://picsum.photos/800/600?random=54",
    "category": "Tarihi",
    "coordinates": {
      "latitude": 47.5121518,
      "longitude": 19.0988974
    },
    "estimatedDuration": 50,
    "openingTime": "09:00",
    "closingTime": "18:00",
    "cost": 0,
    "interests": [
      "Tarihi"
    ]
  },
  {
    "id": "budapest_56",
    "name": "Budapest-Keleti",
    "description": "budapest'de ziyaret edilebilecek popüler bir nokta: Budapest-Keleti.",
    "image": "https://picsum.photos/800/600?random=55",
    "category": "Tarihi",
    "coordinates": {
      "latitude": 47.500412,
      "longitude": 19.08398
    },
    "estimatedDuration": 33,
    "openingTime": "09:00",
    "closingTime": "18:00",
    "cost": 12,
    "interests": [
      "Tarihi"
    ]
  },
  {
    "id": "budapest_57",
    "name": "Történelmi Városfal Bemutatóhely",
    "description": "budapest'de ziyaret edilebilecek popüler bir nokta: Történelmi Városfal Bemutatóhely.",
    "image": "https://picsum.photos/800/600?random=56",
    "category": "Tarihi",
    "coordinates": {
      "latitude": 47.4887967,
      "longitude": 19.0599691
    },
    "estimatedDuration": 55,
    "openingTime": "09:00",
    "closingTime": "18:00",
    "cost": 0,
    "interests": [
      "Tarihi"
    ]
  },
  {
    "id": "budapest_58",
    "name": "Barlanglakás Emlékkiállítás",
    "description": "budapest'de bulunan önemli bir müze.",
    "image": "https://picsum.photos/800/600?random=57",
    "category": "Müze",
    "coordinates": {
      "latitude": 47.4193965,
      "longitude": 19.0307833
    },
    "estimatedDuration": 39,
    "openingTime": "09:00",
    "closingTime": "18:00",
    "cost": 115,
    "interests": [
      "Müze"
    ]
  },
  {
    "id": "budapest_59",
    "name": "Árkay Aladár-emlékkút",
    "description": "budapest'de ziyaret edilebilecek popüler bir nokta: Árkay Aladár-emlékkút.",
    "image": "https://picsum.photos/800/600?random=58",
    "category": "Tarihi",
    "coordinates": {
      "latitude": 47.5060404,
      "longitude": 19.0215617
    },
    "estimatedDuration": 40,
    "openingTime": "09:00",
    "closingTime": "18:00",
    "cost": 0,
    "interests": [
      "Tarihi"
    ]
  },
  {
    "id": "budapest_60",
    "name": "Nagy-Kevély",
    "description": "budapest'de ziyaret edilebilecek popüler bir nokta: Nagy-Kevély.",
    "image": "https://picsum.photos/800/600?random=59",
    "category": "Tarihi",
    "coordinates": {
      "latitude": 47.6227154,
      "longitude": 18.9846024
    },
    "estimatedDuration": 38,
    "openingTime": "09:00",
    "closingTime": "18:00",
    "cost": 165,
    "interests": [
      "Tarihi"
    ]
  }
]