[
  {
    "id": "dar_es_salaam_1",
    "name": "Pointe des Almadies",
    "description": "dar_es_salaam'de ziyaret edilebilecek popüler bir nokta: Pointe des Almadies.",
    "image": "https://picsum.photos/800/600?random=0",
    "category": "Tarihi",
    "coordinates": {
      "latitude": 14.7410622,
      "longitude": -17.529781
    },
    "estimatedDuration": 61,
    "openingTime": "09:00",
    "closingTime": "18:00",
    "cost": 0,
    "interests": [
      "Tarihi"
    ]
  },
  {
    "id": "dar_es_salaam_2",
    "name": "Grotte de Seydina Limamou Laye",
    "description": "dar_es_salaam'in tarihi ibadet yapılarından biri.",
    "image": "https://picsum.photos/800/600?random=1",
    "category": "Tarihi",
    "coordinates": {
      "latitude": 14.7345153,
      "longitude": -17.5112912
    },
    "estimatedDuration": 40,
    "openingTime": "09:00",
    "closingTime": "18:00",
    "cost": 0,
    "interests": [
      "Tarihi"
    ]
  },
  {
    "id": "dar_es_salaam_3",
    "name": "Cathédrale du Souvenir africain",
    "description": "dar_es_salaam'in tarihi ibadet yapılarından biri.",
    "image": "https://picsum.photos/800/600?random=2",
    "category": "Tarihi",
    "coordinates": {
      "latitude": 14.665399,
      "longitude": -17.4376119
    },
    "estimatedDuration": 69,
    "openingTime": "09:00",
    "closingTime": "18:00",
    "cost": 0,
    "interests": [
      "Tarihi"
    ]
  },
  {
    "id": "dar_es_salaam_4",
    "name": "Monument de la Renaissance Africaine",
    "description": "dar_es_salaam'de ziyaret edilebilecek popüler bir nokta: Monument de la Renaissance Africaine.",
    "image": "https://picsum.photos/800/600?random=3",
    "category": "Tarihi",
    "coordinates": {
      "latitude": 14.7221473,
      "longitude": -17.4949655
    },
    "estimatedDuration": 84,
    "openingTime": "09:00",
    "closingTime": "18:00",
    "cost": 0,
    "interests": [
      "Tarihi"
    ]
  },
  {
    "id": "dar_es_salaam_5",
    "name": "Église Saint-Charles-Borromée",
    "description": "dar_es_salaam'in tarihi ibadet yapılarından biri.",
    "image": "https://picsum.photos/800/600?random=4",
    "category": "Tarihi",
    "coordinates": {
      "latitude": 14.666948,
      "longitude": -17.3979821
    },
    "estimatedDuration": 79,
    "openingTime": "09:00",
    "closingTime": "18:00",
    "cost": 0,
    "interests": [
      "Tarihi"
    ]
  },
  {
    "id": "dar_es_salaam_6",
    "name": "Musée de la Mer",
    "description": "dar_es_salaam'de bulunan önemli bir müze.",
    "image": "https://picsum.photos/800/600?random=5",
    "category": "Müze",
    "coordinates": {
      "latitude": 14.6683505,
      "longitude": -17.399902
    },
    "estimatedDuration": 40,
    "openingTime": "09:00",
    "closingTime": "18:00",
    "cost": 0,
    "interests": [
      "Müze"
    ]
  },
  {
    "id": "dar_es_salaam_7",
    "name": "Ancien Musée de la Femme",
    "description": "dar_es_salaam'de bulunan önemli bir müze.",
    "image": "https://picsum.photos/800/600?random=6",
    "category": "Müze",
    "coordinates": {
      "latitude": 14.6675827,
      "longitude": -17.3974813
    },
    "estimatedDuration": 45,
    "openingTime": "09:00",
    "closingTime": "18:00",
    "cost": 24,
    "interests": [
      "Müze"
    ]
  },
  {
    "id": "dar_es_salaam_8",
    "name": "Mosquée de Gorée",
    "description": "dar_es_salaam'in tarihi ibadet yapılarından biri.",
    "image": "https://picsum.photos/800/600?random=7",
    "category": "Tarihi",
    "coordinates": {
      "latitude": 14.665703,
      "longitude": -17.3988739
    },
    "estimatedDuration": 44,
    "openingTime": "09:00",
    "closingTime": "18:00",
    "cost": 0,
    "interests": [
      "Tarihi"
    ]
  },
  {
    "id": "dar_es_salaam_9",
    "name": "Musée Théodore-Monod d'Art africain",
    "description": "dar_es_salaam'de bulunan önemli bir müze.",
    "image": "https://picsum.photos/800/600?random=8",
    "category": "Müze",
    "coordinates": {
      "latitude": 14.663699,
      "longitude": -17.4383434
    },
    "estimatedDuration": 77,
    "openingTime": "09:00",
    "closingTime": "18:00",
    "cost": 0,
    "interests": [
      "Müze"
    ]
  },
  {
    "id": "dar_es_salaam_10",
    "name": "Mémorial de Gorée",
    "description": "dar_es_salaam'de ziyaret edilebilecek popüler bir nokta: Mémorial de Gorée.",
    "image": "https://picsum.photos/800/600?random=9",
    "category": "Tarihi",
    "coordinates": {
      "latitude": 14.6646817,
      "longitude": -17.39787
    },
    "estimatedDuration": 63,
    "openingTime": "09:00",
    "closingTime": "18:00",
    "cost": 123,
    "interests": [
      "Tarihi"
    ]
  },
  {
    "id": "dar_es_salaam_11",
    "name": "Musée des Civilisations Noires",
    "description": "dar_es_salaam'de bulunan önemli bir müze.",
    "image": "https://picsum.photos/800/600?random=10",
    "category": "Müze",
    "coordinates": {
      "latitude": 14.6774489,
      "longitude": -17.4350736
    },
    "estimatedDuration": 69,
    "openingTime": "09:00",
    "closingTime": "18:00",
    "cost": 0,
    "interests": [
      "Müze"
    ]
  },
  {
    "id": "dar_es_salaam_12",
    "name": "Maison des Esclaves",
    "description": "dar_es_salaam'de bulunan önemli bir müze.",
    "image": "https://picsum.photos/800/600?random=11",
    "category": "Müze",
    "coordinates": {
      "latitude": 14.6676502,
      "longitude": -17.3972964
    },
    "estimatedDuration": 33,
    "openingTime": "09:00",
    "closingTime": "18:00",
    "cost": 0,
    "interests": [
      "Müze"
    ]
  },
  {
    "id": "dar_es_salaam_13",
    "name": "Grande Mosquée de Dakar",
    "description": "dar_es_salaam'in tarihi ibadet yapılarından biri.",
    "image": "https://picsum.photos/800/600?random=12",
    "category": "Tarihi",
    "coordinates": {
      "latitude": 14.6781808,
      "longitude": -17.4425136
    },
    "estimatedDuration": 84,
    "openingTime": "09:00",
    "closingTime": "18:00",
    "cost": 0,
    "interests": [
      "Tarihi"
    ]
  },
  {
    "id": "dar_es_salaam_14",
    "name": "Ngor",
    "description": "dar_es_salaam'de ziyaret edilebilecek popüler bir nokta: Ngor.",
    "image": "https://picsum.photos/800/600?random=13",
    "category": "Tarihi",
    "coordinates": {
      "latitude": 14.7559764,
      "longitude": -17.5141032
    },
    "estimatedDuration": 81,
    "openingTime": "09:00",
    "closingTime": "18:00",
    "cost": 0,
    "interests": [
      "Tarihi"
    ]
  },
  {
    "id": "dar_es_salaam_15",
    "name": "Fort d'Estrée",
    "description": "dar_es_salaam'de bulunan önemli bir müze.",
    "image": "https://picsum.photos/800/600?random=14",
    "category": "Müze",
    "coordinates": {
      "latitude": 14.6707272,
      "longitude": -17.3995656
    },
    "estimatedDuration": 41,
    "openingTime": "09:00",
    "closingTime": "18:00",
    "cost": 0,
    "interests": [
      "Müze"
    ]
  }
]