[
  {
    "id": "riyadh_1",
    "name": "Barbaros Hayrettin Türbesi",
    "description": "riyadh'de ziyaret edilebilecek popüler bir nokta: Barbaros Hayrettin Türbesi.",
    "image": "https://images.pexels.com/photos/17165214/pexels-photo-17165214.jpeg?auto=compress&cs=tinysrgb&h=650&w=940",
    "category": "Tarihi",
    "coordinates": {
      "latitude": 41.0419227,
      "longitude": 29.0068359
    },
    "estimatedDuration": 37,
    "openingTime": "09:00",
    "closingTime": "18:00",
    "cost": 0,
    "interests": [
      "Tarihi"
    ]
  },
  {
    "id": "riyadh_2",
    "name": "Surp Garabed Kilisesi",
    "description": "riyadh'in tarihi ibadet yapılarından biri.",
    "image": "https://picsum.photos/800/600?random=1",
    "category": "Tarihi",
    "coordinates": {
      "latitude": 41.0209212,
      "longitude": 29.031366
    },
    "estimatedDuration": 83,
    "openingTime": "09:00",
    "closingTime": "18:00",
    "cost": 0,
    "interests": [
      "Tarihi"
    ]
  },
  {
    "id": "riyadh_3",
    "name": "Yılanlı Sütun",
    "description": "riyadh'de ziyaret edilebilecek popüler bir nokta: Yılanlı Sütun.",
    "image": "https://picsum.photos/800/600?random=2",
    "category": "Tarihi",
    "coordinates": {
      "latitude": 41.0056649,
      "longitude": 28.9751101
    },
    "estimatedDuration": 47,
    "openingTime": "09:00",
    "closingTime": "18:00",
    "cost": 117,
    "interests": [
      "Tarihi"
    ]
  },
  {
    "id": "riyadh_4",
    "name": "Sabancı Üniversitesi Sakıp Sabancı Müzesi",
    "description": "riyadh'de bulunan önemli bir müze.",
    "image": "https://picsum.photos/800/600?random=3",
    "category": "Müze",
    "coordinates": {
      "latitude": 41.106019,
      "longitude": 29.0556289
    },
    "estimatedDuration": 41,
    "openingTime": "09:00",
    "closingTime": "18:00",
    "cost": 0,
    "interests": [
      "Müze"
    ]
  },
  {
    "id": "riyadh_5",
    "name": "Çemberlitaş Hamamı",
    "description": "riyadh'de ziyaret edilebilecek popüler bir nokta: Çemberlitaş Hamamı.",
    "image": "https://picsum.photos/800/600?random=4",
    "category": "Tarihi",
    "coordinates": {
      "latitude": 41.0085416,
      "longitude": 28.9716244
    },
    "estimatedDuration": 79,
    "openingTime": "09:00",
    "closingTime": "18:00",
    "cost": 0,
    "interests": [
      "Tarihi"
    ]
  },
  {
    "id": "riyadh_6",
    "name": "Neve Şalom Sinagogu",
    "description": "riyadh'in tarihi ibadet yapılarından biri.",
    "image": "https://picsum.photos/800/600?random=5",
    "category": "Tarihi",
    "coordinates": {
      "latitude": 41.0266963,
      "longitude": 28.9724737
    },
    "estimatedDuration": 32,
    "openingTime": "09:00",
    "closingTime": "18:00",
    "cost": 0,
    "interests": [
      "Tarihi"
    ]
  },
  {
    "id": "riyadh_7",
    "name": "Fatih Mescidi",
    "description": "riyadh'in tarihi ibadet yapılarından biri.",
    "image": "https://picsum.photos/800/600?random=6",
    "category": "Tarihi",
    "coordinates": {
      "latitude": 41.0044905,
      "longitude": 28.8526953
    },
    "estimatedDuration": 37,
    "openingTime": "09:00",
    "closingTime": "18:00",
    "cost": 0,
    "interests": [
      "Tarihi"
    ]
  },
  {
    "id": "riyadh_8",
    "name": "Havacılık Müzesi",
    "description": "riyadh'de bulunan önemli bir müze.",
    "image": "https://picsum.photos/800/600?random=7",
    "category": "Müze",
    "coordinates": {
      "latitude": 40.9641579,
      "longitude": 28.8262655
    },
    "estimatedDuration": 77,
    "openingTime": "09:00",
    "closingTime": "18:00",
    "cost": 0,
    "interests": [
      "Müze"
    ]
  },
  {
    "id": "riyadh_9",
    "name": "Askerî Müze",
    "description": "riyadh'de bulunan önemli bir müze.",
    "image": "https://picsum.photos/800/600?random=8",
    "category": "Müze",
    "coordinates": {
      "latitude": 41.0488755,
      "longitude": 28.9882427
    },
    "estimatedDuration": 75,
    "openingTime": "09:00",
    "closingTime": "18:00",
    "cost": 0,
    "interests": [
      "Müze"
    ]
  },
  {
    "id": "riyadh_10",
    "name": "Miniatürk Açıkhava Müzesi",
    "description": "riyadh'de bulunan önemli bir müze.",
    "image": "https://picsum.photos/800/600?random=9",
    "category": "Müze",
    "coordinates": {
      "latitude": 41.059005,
      "longitude": 28.9490675
    },
    "estimatedDuration": 62,
    "openingTime": "09:00",
    "closingTime": "18:00",
    "cost": 0,
    "interests": [
      "Müze"
    ]
  },
  {
    "id": "riyadh_11",
    "name": "Hatice Turhan Sultan Türbesi",
    "description": "riyadh'de ziyaret edilebilecek popüler bir nokta: Hatice Turhan Sultan Türbesi.",
    "image": "https://picsum.photos/800/600?random=10",
    "category": "Tarihi",
    "coordinates": {
      "latitude": 41.0162025,
      "longitude": 28.9719047
    },
    "estimatedDuration": 44,
    "openingTime": "09:00",
    "closingTime": "18:00",
    "cost": 184,
    "interests": [
      "Tarihi"
    ]
  },
  {
    "id": "riyadh_12",
    "name": "Milyon Taşı",
    "description": "riyadh'de ziyaret edilebilecek popüler bir nokta: Milyon Taşı.",
    "image": "https://picsum.photos/800/600?random=11",
    "category": "Tarihi",
    "coordinates": {
      "latitude": 41.0080674,
      "longitude": 28.9780181
    },
    "estimatedDuration": 89,
    "openingTime": "09:00",
    "closingTime": "18:00",
    "cost": 36,
    "interests": [
      "Tarihi"
    ]
  },
  {
    "id": "riyadh_13",
    "name": "Cumhuriyet Anıtı",
    "description": "riyadh'de ziyaret edilebilecek popüler bir nokta: Cumhuriyet Anıtı.",
    "image": "https://picsum.photos/800/600?random=12",
    "category": "Tarihi",
    "coordinates": {
      "latitude": 41.0369723,
      "longitude": 28.9851248
    },
    "estimatedDuration": 33,
    "openingTime": "09:00",
    "closingTime": "18:00",
    "cost": 0,
    "interests": [
      "Tarihi"
    ]
  },
  {
    "id": "riyadh_14",
    "name": "2. Abdülhamit Anıtı",
    "description": "riyadh'de ziyaret edilebilecek popüler bir nokta: 2. Abdülhamit Anıtı.",
    "image": "https://picsum.photos/800/600?random=13",
    "category": "Tarihi",
    "coordinates": {
      "latitude": 41.0017691,
      "longitude": 29.0071158
    },
    "estimatedDuration": 79,
    "openingTime": "09:00",
    "closingTime": "18:00",
    "cost": 0,
    "interests": [
      "Tarihi"
    ]
  },
  {
    "id": "riyadh_15",
    "name": "Binbirdirek Sarnıcı",
    "description": "riyadh'de bulunan önemli bir müze.",
    "image": "https://picsum.photos/800/600?random=14",
    "category": "Müze",
    "coordinates": {
      "latitude": 41.007606,
      "longitude": 28.9744173
    },
    "estimatedDuration": 89,
    "openingTime": "09:00",
    "closingTime": "18:00",
    "cost": 0,
    "interests": [
      "Müze"
    ]
  },
  {
    "id": "riyadh_16",
    "name": "Boğa Heykeli",
    "description": "riyadh'de ziyaret edilebilecek popüler bir nokta: Boğa Heykeli.",
    "image": "https://picsum.photos/800/600?random=15",
    "category": "Tarihi",
    "coordinates": {
      "latitude": 40.9904629,
      "longitude": 29.0291571
    },
    "estimatedDuration": 54,
    "openingTime": "09:00",
    "closingTime": "18:00",
    "cost": 0,
    "interests": [
      "Tarihi"
    ]
  },
  {
    "id": "riyadh_17",
    "name": "Kıztaşı",
    "description": "riyadh'de ziyaret edilebilecek popüler bir nokta: Kıztaşı.",
    "image": "https://picsum.photos/800/600?random=16",
    "category": "Tarihi",
    "coordinates": {
      "latitude": 41.0154411,
      "longitude": 28.9502846
    },
    "estimatedDuration": 51,
    "openingTime": "09:00",
    "closingTime": "18:00",
    "cost": 66,
    "interests": [
      "Tarihi"
    ]
  },
  {
    "id": "riyadh_18",
    "name": "Fatih Anıtı",
    "description": "riyadh'de ziyaret edilebilecek popüler bir nokta: Fatih Anıtı.",
    "image": "https://picsum.photos/800/600?random=17",
    "category": "Tarihi",
    "coordinates": {
      "latitude": 41.0155727,
      "longitude": 28.9542189
    },
    "estimatedDuration": 64,
    "openingTime": "09:00",
    "closingTime": "18:00",
    "cost": 0,
    "interests": [
      "Tarihi"
    ]
  },
  {
    "id": "riyadh_19",
    "name": "Hava Şehitleri Anıtı",
    "description": "riyadh'de ziyaret edilebilecek popüler bir nokta: Hava Şehitleri Anıtı.",
    "image": "https://picsum.photos/800/600?random=18",
    "category": "Tarihi",
    "coordinates": {
      "latitude": 41.0160748,
      "longitude": 28.9526349
    },
    "estimatedDuration": 74,
    "openingTime": "09:00",
    "closingTime": "18:00",
    "cost": 0,
    "interests": [
      "Tarihi"
    ]
  },
  {
    "id": "riyadh_20",
    "name": "Adam Mickiewicz Müzesi",
    "description": "riyadh'de bulunan önemli bir müze.",
    "image": "https://picsum.photos/800/600?random=19",
    "category": "Müze",
    "coordinates": {
      "latitude": 41.0387821,
      "longitude": 28.9771474
    },
    "estimatedDuration": 82,
    "openingTime": "09:00",
    "closingTime": "18:00",
    "cost": 17,
    "interests": [
      "Müze"
    ]
  },
  {
    "id": "riyadh_21",
    "name": "Masumiyet Müzesi",
    "description": "riyadh'de bulunan önemli bir müze.",
    "image": "https://picsum.photos/800/600?random=20",
    "category": "Müze",
    "coordinates": {
      "latitude": 41.0308716,
      "longitude": 28.9797952
    },
    "estimatedDuration": 53,
    "openingTime": "09:00",
    "closingTime": "18:00",
    "cost": 0,
    "interests": [
      "Müze"
    ]
  },
  {
    "id": "riyadh_22",
    "name": "Santa Maria Draperis",
    "description": "riyadh'in tarihi ibadet yapılarından biri.",
    "image": "https://picsum.photos/800/600?random=21",
    "category": "Tarihi",
    "coordinates": {
      "latitude": 41.0300987,
      "longitude": 28.9761517
    },
    "estimatedDuration": 79,
    "openingTime": "09:00",
    "closingTime": "18:00",
    "cost": 0,
    "interests": [
      "Tarihi"
    ]
  },
  {
    "id": "riyadh_23",
    "name": "Galatasaray Müzesi",
    "description": "riyadh'de bulunan önemli bir müze.",
    "image": "https://picsum.photos/800/600?random=22",
    "category": "Müze",
    "coordinates": {
      "latitude": 41.0334816,
      "longitude": 28.9769398
    },
    "estimatedDuration": 34,
    "openingTime": "09:00",
    "closingTime": "18:00",
    "cost": 0,
    "interests": [
      "Müze"
    ]
  },
  {
    "id": "riyadh_24",
    "name": "Anadolu Hisarı Namazgah",
    "description": "riyadh'in tarihi ibadet yapılarından biri.",
    "image": "https://picsum.photos/800/600?random=23",
    "category": "Tarihi",
    "coordinates": {
      "latitude": 41.0818296,
      "longitude": 29.0667781
    },
    "estimatedDuration": 79,
    "openingTime": "09:00",
    "closingTime": "18:00",
    "cost": 0,
    "interests": [
      "Tarihi"
    ]
  },
  {
    "id": "riyadh_25",
    "name": "Yıldız Sarayı",
    "description": "riyadh'de ziyaret edilebilecek popüler bir nokta: Yıldız Sarayı.",
    "image": "https://picsum.photos/800/600?random=24",
    "category": "Tarihi",
    "coordinates": {
      "latitude": 41.0507108,
      "longitude": 29.0117042
    },
    "estimatedDuration": 45,
    "openingTime": "09:00",
    "closingTime": "18:00",
    "cost": 190,
    "interests": [
      "Tarihi"
    ]
  },
  {
    "id": "riyadh_26",
    "name": "Meryem Ana Rum Manastiri",
    "description": "riyadh'in tarihi ibadet yapılarından biri.",
    "image": "https://picsum.photos/800/600?random=25",
    "category": "Tarihi",
    "coordinates": {
      "latitude": 41.0067555,
      "longitude": 28.9155212
    },
    "estimatedDuration": 89,
    "openingTime": "09:00",
    "closingTime": "18:00",
    "cost": 0,
    "interests": [
      "Tarihi"
    ]
  },
  {
    "id": "riyadh_27",
    "name": "Kanuni Sultan Suleyman 1 Turbesi",
    "description": "riyadh'de ziyaret edilebilecek popüler bir nokta: Kanuni Sultan Suleyman 1 Turbesi.",
    "image": "https://picsum.photos/800/600?random=26",
    "category": "Tarihi",
    "coordinates": {
      "latitude": 41.0156999,
      "longitude": 28.9644663
    },
    "estimatedDuration": 40,
    "openingTime": "09:00",
    "closingTime": "18:00",
    "cost": 0,
    "interests": [
      "Tarihi"
    ]
  },
  {
    "id": "riyadh_28",
    "name": "Hurrem Haseki (Roksolana) Turbesi",
    "description": "riyadh'de ziyaret edilebilecek popüler bir nokta: Hurrem Haseki (Roksolana) Turbesi.",
    "image": "https://picsum.photos/800/600?random=27",
    "category": "Tarihi",
    "coordinates": {
      "latitude": 41.0156683,
      "longitude": 28.9648085
    },
    "estimatedDuration": 81,
    "openingTime": "09:00",
    "closingTime": "18:00",
    "cost": 0,
    "interests": [
      "Tarihi"
    ]
  },
  {
    "id": "riyadh_29",
    "name": "Saat Kulesi",
    "description": "riyadh'de ziyaret edilebilecek popüler bir nokta: Saat Kulesi.",
    "image": "https://picsum.photos/800/600?random=28",
    "category": "Tarihi",
    "coordinates": {
      "latitude": 40.8741241,
      "longitude": 29.1286022
    },
    "estimatedDuration": 85,
    "openingTime": "09:00",
    "closingTime": "18:00",
    "cost": 0,
    "interests": [
      "Tarihi"
    ]
  },
  {
    "id": "riyadh_30",
    "name": "Caddebostan Sinagogu",
    "description": "riyadh'in tarihi ibadet yapılarından biri.",
    "image": "https://picsum.photos/800/600?random=29",
    "category": "Tarihi",
    "coordinates": {
      "latitude": 40.9724211,
      "longitude": 29.0676302
    },
    "estimatedDuration": 82,
    "openingTime": "09:00",
    "closingTime": "18:00",
    "cost": 0,
    "interests": [
      "Tarihi"
    ]
  },
  {
    "id": "riyadh_31",
    "name": "Gotlar Sütunu",
    "description": "riyadh'de ziyaret edilebilecek popüler bir nokta: Gotlar Sütunu.",
    "image": "https://picsum.photos/800/600?random=30",
    "category": "Tarihi",
    "coordinates": {
      "latitude": 41.0146409,
      "longitude": 28.9856774
    },
    "estimatedDuration": 76,
    "openingTime": "09:00",
    "closingTime": "18:00",
    "cost": 0,
    "interests": [
      "Tarihi"
    ]
  },
  {
    "id": "riyadh_32",
    "name": "Aziz Meryem",
    "description": "riyadh'in tarihi ibadet yapılarından biri.",
    "image": "https://picsum.photos/800/600?random=31",
    "category": "Tarihi",
    "coordinates": {
      "latitude": 41.1603501,
      "longitude": 29.0417196
    },
    "estimatedDuration": 81,
    "openingTime": "09:00",
    "closingTime": "18:00",
    "cost": 113,
    "interests": [
      "Tarihi"
    ]
  },
  {
    "id": "riyadh_33",
    "name": "Dogançay Müzesi",
    "description": "riyadh'de bulunan önemli bir müze.",
    "image": "https://picsum.photos/800/600?random=32",
    "category": "Müze",
    "coordinates": {
      "latitude": 41.0357703,
      "longitude": 28.9783705
    },
    "estimatedDuration": 60,
    "openingTime": "09:00",
    "closingTime": "18:00",
    "cost": 0,
    "interests": [
      "Müze"
    ]
  },
  {
    "id": "riyadh_34",
    "name": "Turkuazoo",
    "description": "riyadh'de ziyaret edilebilecek popüler bir nokta: Turkuazoo.",
    "image": "https://picsum.photos/800/600?random=33",
    "category": "Tarihi",
    "coordinates": {
      "latitude": 41.0455958,
      "longitude": 28.896211
    },
    "estimatedDuration": 55,
    "openingTime": "09:00",
    "closingTime": "18:00",
    "cost": 0,
    "interests": [
      "Tarihi"
    ]
  },
  {
    "id": "riyadh_35",
    "name": "Ayios Polieuktos Kilisesi",
    "description": "riyadh'de ziyaret edilebilecek popüler bir nokta: Ayios Polieuktos Kilisesi.",
    "image": "https://picsum.photos/800/600?random=34",
    "category": "Tarihi",
    "coordinates": {
      "latitude": 41.0142319,
      "longitude": 28.9529591
    },
    "estimatedDuration": 69,
    "openingTime": "09:00",
    "closingTime": "18:00",
    "cost": 0,
    "interests": [
      "Tarihi"
    ]
  },
  {
    "id": "riyadh_36",
    "name": "Rezan Has Museum",
    "description": "riyadh'de bulunan önemli bir müze.",
    "image": "https://picsum.photos/800/600?random=35",
    "category": "Müze",
    "coordinates": {
      "latitude": 41.0252799,
      "longitude": 28.9584325
    },
    "estimatedDuration": 32,
    "openingTime": "09:00",
    "closingTime": "18:00",
    "cost": 0,
    "interests": [
      "Müze"
    ]
  },
  {
    "id": "riyadh_37",
    "name": "Panayia Belgradu Kilisesi",
    "description": "riyadh'in tarihi ibadet yapılarından biri.",
    "image": "https://picsum.photos/800/600?random=36",
    "category": "Tarihi",
    "coordinates": {
      "latitude": 41.0001135,
      "longitude": 28.9219792
    },
    "estimatedDuration": 47,
    "openingTime": "09:00",
    "closingTime": "18:00",
    "cost": 0,
    "interests": [
      "Tarihi"
    ]
  },
  {
    "id": "riyadh_38",
    "name": "Samatya Aya Analipsiz Kilisesi",
    "description": "riyadh'in tarihi ibadet yapılarından biri.",
    "image": "https://picsum.photos/800/600?random=37",
    "category": "Tarihi",
    "coordinates": {
      "latitude": 40.9990416,
      "longitude": 28.9315881
    },
    "estimatedDuration": 64,
    "openingTime": "09:00",
    "closingTime": "18:00",
    "cost": 0,
    "interests": [
      "Tarihi"
    ]
  },
  {
    "id": "riyadh_39",
    "name": "İstanbul Demiryolu Müzesi",
    "description": "riyadh'de bulunan önemli bir müze.",
    "image": "https://picsum.photos/800/600?random=38",
    "category": "Müze",
    "coordinates": {
      "latitude": 41.0151986,
      "longitude": 28.9766826
    },
    "estimatedDuration": 73,
    "openingTime": "09:00",
    "closingTime": "18:00",
    "cost": 129,
    "interests": [
      "Müze"
    ]
  },
  {
    "id": "riyadh_40",
    "name": "Beyazıt Türk Hamam Kültürü Müzesi",
    "description": "riyadh'de bulunan önemli bir müze.",
    "image": "https://picsum.photos/800/600?random=39",
    "category": "Müze",
    "coordinates": {
      "latitude": 41.0099458,
      "longitude": 28.9615545
    },
    "estimatedDuration": 43,
    "openingTime": "09:00",
    "closingTime": "18:00",
    "cost": 0,
    "interests": [
      "Müze"
    ]
  },
  {
    "id": "riyadh_41",
    "name": "Kasturya Sinagogu",
    "description": "riyadh'in tarihi ibadet yapılarından biri.",
    "image": "https://picsum.photos/800/600?random=40",
    "category": "Tarihi",
    "coordinates": {
      "latitude": 41.0342139,
      "longitude": 28.9414755
    },
    "estimatedDuration": 84,
    "openingTime": "09:00",
    "closingTime": "18:00",
    "cost": 0,
    "interests": [
      "Tarihi"
    ]
  },
  {
    "id": "riyadh_42",
    "name": "Türk ve İslam Eserleri Müzesi",
    "description": "riyadh'de bulunan önemli bir müze.",
    "image": "https://picsum.photos/800/600?random=41",
    "category": "Müze",
    "coordinates": {
      "latitude": 41.0062801,
      "longitude": 28.974915
    },
    "estimatedDuration": 87,
    "openingTime": "09:00",
    "closingTime": "18:00",
    "cost": 0,
    "interests": [
      "Müze"
    ]
  },
  {
    "id": "riyadh_43",
    "name": "İslam bilim ve teknoloji tarihi müzesi",
    "description": "riyadh'de bulunan önemli bir müze.",
    "image": "https://picsum.photos/800/600?random=42",
    "category": "Müze",
    "coordinates": {
      "latitude": 41.0132188,
      "longitude": 28.9789678
    },
    "estimatedDuration": 55,
    "openingTime": "09:00",
    "closingTime": "18:00",
    "cost": 0,
    "interests": [
      "Müze"
    ]
  },
  {
    "id": "riyadh_44",
    "name": "Türk Vakıf Hat Sanatları Müzesi",
    "description": "riyadh'de bulunan önemli bir müze.",
    "image": "https://picsum.photos/800/600?random=43",
    "category": "Müze",
    "coordinates": {
      "latitude": 41.01005,
      "longitude": 28.9631808
    },
    "estimatedDuration": 56,
    "openingTime": "09:00",
    "closingTime": "18:00",
    "cost": 0,
    "interests": [
      "Müze"
    ]
  },
  {
    "id": "riyadh_45",
    "name": "Abdulmecit Efendi Köşkü",
    "description": "riyadh'de bulunan önemli bir müze.",
    "image": "https://picsum.photos/800/600?random=44",
    "category": "Müze",
    "coordinates": {
      "latitude": 41.0282408,
      "longitude": 29.0415462
    },
    "estimatedDuration": 38,
    "openingTime": "09:00",
    "closingTime": "18:00",
    "cost": 0,
    "interests": [
      "Müze"
    ]
  },
  {
    "id": "riyadh_46",
    "name": "Mehmet Efendi Çeşmesi",
    "description": "riyadh'de ziyaret edilebilecek popüler bir nokta: Mehmet Efendi Çeşmesi.",
    "image": "https://picsum.photos/800/600?random=45",
    "category": "Tarihi",
    "coordinates": {
      "latitude": 41.0031805,
      "longitude": 28.9720795
    },
    "estimatedDuration": 80,
    "openingTime": "09:00",
    "closingTime": "18:00",
    "cost": 0,
    "interests": [
      "Tarihi"
    ]
  },
  {
    "id": "riyadh_47",
    "name": "Türkiye Gazeteciler Cemiyeti Basın Müzesi",
    "description": "riyadh'de bulunan önemli bir müze.",
    "image": "https://picsum.photos/800/600?random=46",
    "category": "Müze",
    "coordinates": {
      "latitude": 41.0085619,
      "longitude": 28.9722162
    },
    "estimatedDuration": 81,
    "openingTime": "09:00",
    "closingTime": "18:00",
    "cost": 0,
    "interests": [
      "Müze"
    ]
  },
  {
    "id": "riyadh_48",
    "name": "Sarayburnu Atatürk Anıtı",
    "description": "riyadh'de ziyaret edilebilecek popüler bir nokta: Sarayburnu Atatürk Anıtı.",
    "image": "https://picsum.photos/800/600?random=47",
    "category": "Tarihi",
    "coordinates": {
      "latitude": 41.016263,
      "longitude": 28.9861325
    },
    "estimatedDuration": 63,
    "openingTime": "09:00",
    "closingTime": "18:00",
    "cost": 0,
    "interests": [
      "Tarihi"
    ]
  },
  {
    "id": "riyadh_49",
    "name": "500. Yıl Vakfı Türk Musevileri Müzesi",
    "description": "riyadh'de bulunan önemli bir müze.",
    "image": "https://picsum.photos/800/600?random=48",
    "category": "Müze",
    "coordinates": {
      "latitude": 41.0267866,
      "longitude": 28.9727283
    },
    "estimatedDuration": 74,
    "openingTime": "09:00",
    "closingTime": "18:00",
    "cost": 188,
    "interests": [
      "Müze"
    ]
  },
  {
    "id": "riyadh_50",
    "name": "Surp Pırgiç Kilisesi",
    "description": "riyadh'in tarihi ibadet yapılarından biri.",
    "image": "https://picsum.photos/800/600?random=49",
    "category": "Tarihi",
    "coordinates": {
      "latitude": 41.0245024,
      "longitude": 28.9760077
    },
    "estimatedDuration": 51,
    "openingTime": "09:00",
    "closingTime": "18:00",
    "cost": 0,
    "interests": [
      "Tarihi"
    ]
  },
  {
    "id": "riyadh_51",
    "name": "Surp Kevork Kilisesi",
    "description": "riyadh'in tarihi ibadet yapılarından biri.",
    "image": "https://picsum.photos/800/600?random=50",
    "category": "Tarihi",
    "coordinates": {
      "latitude": 41.0018646,
      "longitude": 28.9331468
    },
    "estimatedDuration": 81,
    "openingTime": "09:00",
    "closingTime": "18:00",
    "cost": 0,
    "interests": [
      "Tarihi"
    ]
  },
  {
    "id": "riyadh_52",
    "name": "Surp Hagop Kilisesi",
    "description": "riyadh'in tarihi ibadet yapılarından biri.",
    "image": "https://picsum.photos/800/600?random=51",
    "category": "Tarihi",
    "coordinates": {
      "latitude": 41.0081065,
      "longitude": 28.9347471
    },
    "estimatedDuration": 89,
    "openingTime": "09:00",
    "closingTime": "18:00",
    "cost": 160,
    "interests": [
      "Tarihi"
    ]
  },
  {
    "id": "riyadh_53",
    "name": "Surp Yerits Mangants Kilisesi",
    "description": "riyadh'in tarihi ibadet yapılarından biri.",
    "image": "https://picsum.photos/800/600?random=52",
    "category": "Tarihi",
    "coordinates": {
      "latitude": 41.1023462,
      "longitude": 29.051159
    },
    "estimatedDuration": 89,
    "openingTime": "09:00",
    "closingTime": "18:00",
    "cost": 171,
    "interests": [
      "Tarihi"
    ]
  },
  {
    "id": "riyadh_54",
    "name": "Surp Asdvadzadzin Kilisesi",
    "description": "riyadh'in tarihi ibadet yapılarından biri.",
    "image": "https://picsum.photos/800/600?random=53",
    "category": "Tarihi",
    "coordinates": {
      "latitude": 41.0445539,
      "longitude": 29.0053046
    },
    "estimatedDuration": 68,
    "openingTime": "09:00",
    "closingTime": "18:00",
    "cost": 0,
    "interests": [
      "Tarihi"
    ]
  },
  {
    "id": "riyadh_55",
    "name": "Çiçek Pasajı",
    "description": "riyadh'de ziyaret edilebilecek popüler bir nokta: Çiçek Pasajı.",
    "image": "https://picsum.photos/800/600?random=54",
    "category": "Tarihi",
    "coordinates": {
      "latitude": 41.0340997,
      "longitude": 28.9779211
    },
    "estimatedDuration": 75,
    "openingTime": "09:00",
    "closingTime": "18:00",
    "cost": 159,
    "interests": [
      "Tarihi"
    ]
  },
  {
    "id": "riyadh_56",
    "name": "İstanbul Modern Sanat Müzesi",
    "description": "riyadh'de bulunan önemli bir müze.",
    "image": "https://picsum.photos/800/600?random=55",
    "category": "Müze",
    "coordinates": {
      "latitude": 41.025911,
      "longitude": 28.982812
    },
    "estimatedDuration": 42,
    "openingTime": "09:00",
    "closingTime": "18:00",
    "cost": 46,
    "interests": [
      "Müze"
    ]
  },
  {
    "id": "riyadh_57",
    "name": "Aziz Yahya Kilisesi",
    "description": "riyadh'in tarihi ibadet yapılarından biri.",
    "image": "https://picsum.photos/800/600?random=56",
    "category": "Tarihi",
    "coordinates": {
      "latitude": 41.0252215,
      "longitude": 28.9781298
    },
    "estimatedDuration": 80,
    "openingTime": "09:00",
    "closingTime": "18:00",
    "cost": 0,
    "interests": [
      "Tarihi"
    ]
  },
  {
    "id": "riyadh_58",
    "name": "İtalyan Sinagogu",
    "description": "riyadh'in tarihi ibadet yapılarından biri.",
    "image": "https://picsum.photos/800/600?random=57",
    "category": "Tarihi",
    "coordinates": {
      "latitude": 41.025424,
      "longitude": 28.9725458
    },
    "estimatedDuration": 40,
    "openingTime": "09:00",
    "closingTime": "18:00",
    "cost": 0,
    "interests": [
      "Tarihi"
    ]
  },
  {
    "id": "riyadh_59",
    "name": "Prison of Anemas",
    "description": "riyadh'de ziyaret edilebilecek popüler bir nokta: Prison of Anemas.",
    "image": "https://picsum.photos/800/600?random=58",
    "category": "Tarihi",
    "coordinates": {
      "latitude": 41.038414,
      "longitude": 28.9407981
    },
    "estimatedDuration": 84,
    "openingTime": "09:00",
    "closingTime": "18:00",
    "cost": 0,
    "interests": [
      "Tarihi"
    ]
  },
  {
    "id": "riyadh_60",
    "name": "Surp Vartanans",
    "description": "riyadh'in tarihi ibadet yapılarından biri.",
    "image": "https://picsum.photos/800/600?random=59",
    "category": "Tarihi",
    "coordinates": {
      "latitude": 41.0536475,
      "longitude": 28.981291
    },
    "estimatedDuration": 87,
    "openingTime": "09:00",
    "closingTime": "18:00",
    "cost": 0,
    "interests": [
      "Tarihi"
    ]
  }
]